
transforms:
  -
    header:
      seq: 0
      stamp:
        secs: 57
        nsecs: 701300000
      frame_id: "map"
    child_frame_id: "odom"
    transform:
      translation:
        x: -0.173645353148
        y: -0.0122727898855
        z: -0.0
      rotation:
        x: 0.0
        y: 0.0
        z: 0.00215360467146
        w: 0.999997680991
---
transforms:
  -
    header:
      seq: 0
      stamp:
        secs: 57
        nsecs: 667400000
      frame_id: "odom"
    child_frame_id: "base_link"
    transform:
      translation:
        x: -3.63328067869
        y: -8.18252922836
        z: 0.00600924398977
      rotation:
        x: -0.000276222045276
        y: -0.000474107398932
        z: 0.73964468565
        w: 0.672997353571
---
transforms:
  -
    header:
      seq: 0
      stamp:
        secs: 57
        nsecs: 667400000
      frame_id: "chassis_link"
    child_frame_id: "front_left_wheel_link"
    transform:
      translation:
        x: 0.131
        y: 0.187795
        z: 0.0345
      rotation:
        x: 0.0
        y: 0.422267440738
        z: 0.0
        w: 0.906471294908
  -
    header:
      seq: 0
      stamp:
        secs: 57
        nsecs: 667400000
      frame_id: "chassis_link"
    child_frame_id: "front_right_wheel_link"
    transform:
      translation:
        x: 0.131
        y: -0.187795
        z: 0.0345
      rotation:
        x: 0.0
        y: 0.918235199916
        z: 0.0
        w: 0.396035500473
  -
    header:
      seq: 0
      stamp:
        secs: 57
        nsecs: 667400000
      frame_id: "chassis_link"
    child_frame_id: "rear_left_wheel_link"
    transform:
      translation:
        x: -0.131
        y: 0.187795
        z: 0.0345
      rotation:
        x: 0.0
        y: 0.434475884001
        z: 0.0
        w: 0.900683466164
  -
    header:
      seq: 0
      stamp:
        secs: 57
        nsecs: 667400000
      frame_id: "chassis_link"
    child_frame_id: "rear_right_wheel_link"
    transform:
      translation:
        x: -0.131
        y: -0.187795
        z: 0.0345
      rotation:
        x: 0.0
        y: 0.931838726342
        z: 0.0
        w: 0.362872688541
---
transforms:
  -
    header:
      seq: 0
      stamp:
        secs: 57
        nsecs: 687700000
      frame_id: "odom"
    child_frame_id: "base_link"
    transform:
      translation:
        x: -3.63427271028
        y: -8.17197530972
        z: 0.00601197448521
      rotation:
        x: -0.00029377139498
        y: -0.000448221544473
        z: 0.738910479568
        w: 0.673803395643
---
transforms:
  -
    header:
      seq: 0
      stamp:
        secs: 57
        nsecs: 687700000
      frame_id: "chassis_link"
    child_frame_id: "front_left_wheel_link"
    transform:
      translation:
        x: 0.131
        y: 0.187795
        z: 0.0345
      rotation:
        x: 0.0
        y: 0.472576356253
        z: 0.0
        w: 0.881289729607
  -
    header:
      seq: 0
      stamp:
        secs: 57
        nsecs: 687700000
      frame_id: "chassis_link"
    child_frame_id: "front_right_wheel_link"
    transform:
      translation:
        x: 0.131
        y: -0.187795
        z: 0.0345
      rotation:
        x: 0.0
        y: 0.937484283846
        z: 0.0
        w: 0.348027610316
  -
    header:
      seq: 0
      stamp:
        secs: 57
        nsecs: 687700000
      frame_id: "chassis_link"
    child_frame_id: "rear_left_wheel_link"
    transform:
      translation:
        x: -0.131
        y: 0.187795
        z: 0.0345
      rotation:
        x: 0.0
        y: 0.484541741228
        z: 0.0
        w: 0.874768141285
  -
    header:
      seq: 0
      stamp:
        secs: 57
        nsecs: 687700000
      frame_id: "chassis_link"
    child_frame_id: "rear_right_wheel_link"
    transform:
      translation:
        x: -0.131
        y: -0.187795
        z: 0.0345
      rotation:
        x: 0.0
        y: 0.949356288496
        z: 0.0
        w: 0.314201587349
---
transforms:
  -
    header:
      seq: 0
      stamp:
        secs: 57
        nsecs: 751000000
      frame_id: "map"
    child_frame_id: "odom"
    transform:
      translation:
        x: -0.173645353148
        y: -0.0122727898855
        z: -0.0
      rotation:
        x: 0.0
        y: 0.0
        z: 0.00215360467146
        w: 0.999997680991
---
transforms:
  -
    header:
      seq: 0
      stamp:
        secs: 57
        nsecs: 707300000
      frame_id: "odom"
    child_frame_id: "base_link"
    transform:
      translation:
        x: -3.63520842226
        y: -8.16178761142
        z: 0.0060145142164
      rotation:
        x: -0.000286626496525
        y: -0.000439016034907
        z: 0.738188776861
        w: 0.674593992581
---
transforms:
  -
    header:
      seq: 0
      stamp:
        secs: 57
        nsecs: 727600000
      frame_id: "odom"
    child_frame_id: "base_link"
    transform:
      translation:
        x: -3.63615476568
        y: -8.151236747
        z: 0.00601710255851
      rotation:
        x: -0.000300969754174
        y: -0.000464099050076
        z: 0.737453661133
        w: 0.675397506444
---
transforms:
  -
    header:
      seq: 0
      stamp:
        secs: 57
        nsecs: 727600000
      frame_id: "chassis_link"
    child_frame_id: "front_left_wheel_link"
    transform:
      translation:
        x: 0.131
        y: 0.187795
        z: 0.0345
      rotation:
        x: 0.0
        y: 0.567116613263
        z: 0.0
        w: 0.823637509442
  -
    header:
      seq: 0
      stamp:
        secs: 57
        nsecs: 727600000
      frame_id: "chassis_link"
    child_frame_id: "front_right_wheel_link"
    transform:
      translation:
        x: 0.131
        y: -0.187795
        z: 0.0345
      rotation:
        x: 0.0
        y: 0.96796105453
        z: 0.0
        w: 0.25110037219
  -
    header:
      seq: 0
      stamp:
        secs: 57
        nsecs: 727600000
      frame_id: "chassis_link"
    child_frame_id: "rear_left_wheel_link"
    transform:
      translation:
        x: -0.131
        y: 0.187795
        z: 0.0345
      rotation:
        x: 0.0
        y: 0.578278544077
        z: 0.0
        w: 0.815839399306
  -
    header:
      seq: 0
      stamp:
        secs: 57
        nsecs: 727600000
      frame_id: "chassis_link"
    child_frame_id: "rear_right_wheel_link"
    transform:
      translation:
        x: -0.131
        y: -0.187795
        z: 0.0345
      rotation:
        x: 0.0
        y: 0.976339322973
        z: 0.0
        w: 0.216244136143
---
transforms:
  -
    header:
      seq: 0
      stamp:
        secs: 57
        nsecs: 747200000
      frame_id: "odom"
    child_frame_id: "base_link"
    transform:
      translation:
        x: -3.6370464584
        y: -8.1410497307
        z: 0.00601958610515
      rotation:
        x: -0.0002707436245
        y: -0.000456348037537
        z: 0.736740265204
        w: 0.676175642915
---
transforms:
  -
    header:
      seq: 0
      stamp:
        secs: 57
        nsecs: 801400000
      frame_id: "map"
    child_frame_id: "odom"
    transform:
      translation:
        x: -0.173645353148
        y: -0.0122727898855
        z: -0.0
      rotation:
        x: 0.0
        y: 0.0
        z: 0.00215360467146
        w: 0.999997680991
